{ "type": "FeatureCollection",

    "features": [
      { 
        "type": "Feature",
        "geometry": {
          "type": "Point", 
          "coordinates": [-77.075191, 38.921939]
          },
          "properties": {
            "name": "Dischord Records",
            "address": "3819 Beecher St. NW",
            "zip": "20007",
            "website": "http://www.dischord.com/",  
            "category": "studio"
          }
        },

        { "type": "Feature",
        "geometry": {
          "type": "Point", 
          "coordinates": [-77.025156, 38.897332]
          },
          "properties": {
            "name": "9:30 Club (original location)",
            "address": "930 F St. NW",
            "zip": "20004",
            "website": "http://www.930.com/",
            "category": "venue"
          }
      },

      { "type": "Feature",
        "geometry": {
          "type": "Point", 
          "coordinates": [-77.042154, 38.920174]
          },
          "properties": {
            "name": "Smash Records",
            "address": "2314 18th ST NW 2nd Floor",
            "zip": "20009",
            "website": "http://www.smashrecords.com/",
            "category": "record store"
          }
      },

      { "type": "Feature",
        "geometry": {
          "type": "Point", 
          "coordinates": [-77.042154, 38.920174]
          },
          "properties": {
            "name": "Smash Records",
            "address": "2314 18th ST NW 2nd Floor",
            "zip": "20009",
            "website": "http://www.smashrecords.com/",
            "category": "record store"
          }
      },

      { "type": "Feature",
        "geometry": {
          "type": "Point", 
          "coordinates": [-77.036483, 38.897676]
          },
          "properties": {
            "name": "The White House",
            "address": "1600 Pennsylvania Ave NW",
            "zip": "20500",
            "website": "https://www.whitehouse.gov/",
            "category": "house"
          }
      }

    ]
}